{"@type":"MassageShop","name":"Health Land Asok","district":"Asok","address":"55/5 Sukhumvit 21 Road, Asok","coordinates":{"lat":13.7306,"lng":100.5628},"price_traditional":400,"price_oil":650,"hours":"10:00-24:00","franchise":true,"legit":true,"strengths":["uniforms","open_storefront","posted_menu","visible_reception","professional_branding","franchise_chains"],"notes":"Consistent service, bright entry, safe for solo female travelers. Part of well-known chain.","last_verified":"2025-01-05"}
{"@type":"MassageShop","name":"Let's Relax Asok","district":"Asok","address":"Sukhumvit 19, Asok","coordinates":{"lat":13.7320,"lng":100.5600},"price_traditional":450,"price_oil":700,"hours":"10:00-22:00","franchise":true,"legit":true,"strengths":["uniforms","open_storefront","posted_menu","visible_reception","professional_branding","franchise_chains"],"notes":"Premium chain with excellent facilities. Very safe and professional.","last_verified":"2025-01-05"}
{"@type":"MassageShop","name":"Health Land Phrom Phong","district":"Phrom Phong","address":"120/5-6 Sukhumvit 26, Phrom Phong","coordinates":{"lat":13.7280,"lng":100.5650},"price_traditional":500,"price_oil":750,"hours":"10:00-24:00","franchise":true,"legit":true,"strengths":["uniforms","open_storefront","posted_menu","visible_reception","professional_branding","franchise_chains"],"notes":"Upscale location, excellent service quality.","last_verified":"2025-01-05"}
{"@type":"MassageShop","name":"Asia Herb Association Phrom Phong","district":"Phrom Phong","address":"58/15-16 Sukhumvit 26, Phrom Phong","coordinates":{"lat":13.7275,"lng":100.5645},"price_traditional":550,"price_oil":850,"hours":"10:00-22:00","franchise":false,"legit":true,"strengths":["uniforms","open_storefront","posted_menu","visible_reception","professional_branding"],"notes":"Specializes in herbal treatments. Premium pricing but excellent quality.","last_verified":"2025-01-05"}
{"@type":"MassageShop","name":"Divana Massage & Spa Thonglor","district":"Thonglor","address":"7 Sukhumvit 49, Thonglor","coordinates":{"lat":13.7230,"lng":100.5800},"price_traditional":600,"price_oil":900,"hours":"10:00-22:00","franchise":false,"legit":true,"strengths":["uniforms","open_storefront","posted_menu","visible_reception","professional_branding"],"notes":"Luxury spa experience. Very safe for solo travelers.","last_verified":"2025-01-05"}
{"@type":"MassageShop","name":"Coran Boutique Spa Thonglor","district":"Thonglor","address":"10/15 Sukhumvit 39, Thonglor","coordinates":{"lat":13.7240,"lng":100.5810},"price_traditional":550,"price_oil":800,"hours":"10:00-22:00","franchise":false,"legit":true,"strengths":["uniforms","open_storefront","posted_menu","visible_reception","professional_branding"],"notes":"Boutique spa with excellent reputation.","last_verified":"2025-01-05"}
{"@type":"MassageShop","name":"Health Land Ekkamai","district":"Ekkamai","address":"96/11 Sukhumvit 63, Ekkamai","coordinates":{"lat":13.7200,"lng":100.5850},"price_traditional":400,"price_oil":650,"hours":"10:00-24:00","franchise":true,"legit":true,"strengths":["uniforms","open_storefront","posted_menu","visible_reception","professional_branding","franchise_chains"],"notes":"Reliable chain location. Good value.","last_verified":"2025-01-05"}
{"@type":"MassageShop","name":"Urban Retreat Ekkamai","district":"Ekkamai","address":"Sukhumvit 63, Ekkamai","coordinates":{"lat":13.7195,"lng":100.5845},"price_traditional":450,"price_oil":700,"hours":"10:00-22:00","franchise":false,"legit":true,"strengths":["uniforms","open_storefront","posted_menu","visible_reception","professional_branding"],"notes":"Modern facility with good reviews.","last_verified":"2025-01-05"}
{"@type":"MassageShop","name":"Health Land Silom","district":"Silom","address":"120 North Sathorn Road, Silom","coordinates":{"lat":13.7285,"lng":100.5350},"price_traditional":400,"price_oil":650,"hours":"10:00-24:00","franchise":true,"legit":true,"strengths":["uniforms","open_storefront","posted_menu","visible_reception","professional_branding","franchise_chains"],"notes":"Busy location but reliable.","last_verified":"2025-01-05"}
{"@type":"MassageShop","name":"Oasis Spa Silom","district":"Silom","address":"64 Soi Langsuan, Silom","coordinates":{"lat":13.7300,"lng":100.5400},"price_traditional":500,"price_oil":750,"hours":"10:00-22:00","franchise":false,"legit":true,"strengths":["uniforms","open_storefront","posted_menu","visible_reception","professional_branding"],"notes":"Premium spa in business district.","last_verified":"2025-01-05"}
{"@type":"MassageShop","name":"Ari Massage Studio","district":"Ari","address":"Ari Soi 1, Ari","coordinates":{"lat":13.7800,"lng":100.5450},"price_traditional":350,"price_oil":550,"hours":"10:00-21:00","franchise":false,"legit":true,"strengths":["uniforms","open_storefront","posted_menu","visible_reception"],"notes":"Local favorite, authentic experience.","last_verified":"2025-01-05"}
{"@type":"MassageShop","name":"Baan Sabai Ari","district":"Ari","address":"Ari Soi 2, Ari","coordinates":{"lat":13.7810,"lng":100.5460},"price_traditional":350,"price_oil":550,"hours":"10:00-21:00","franchise":false,"legit":true,"strengths":["uniforms","open_storefront","posted_menu","visible_reception"],"notes":"Small local shop, good value.","last_verified":"2025-01-05"}
{"@type":"MassageShop","name":"Health Land Victory Monument","district":"Victory Monument","address":"Ratchawithi Road, Victory Monument","coordinates":{"lat":13.7640,"lng":100.5380},"price_traditional":300,"price_oil":500,"hours":"10:00-24:00","franchise":true,"legit":true,"strengths":["uniforms","open_storefront","posted_menu","visible_reception","professional_branding","franchise_chains"],"notes":"Budget-friendly chain location.","last_verified":"2025-01-05"}
{"@type":"MassageShop","name":"Ratchada Traditional Massage","district":"Ratchada","address":"Ratchadapisek Road, Ratchada","coordinates":{"lat":13.8000,"lng":100.5700},"price_traditional":350,"price_oil":600,"hours":"10:00-22:00","franchise":false,"legit":true,"strengths":["uniforms","open_storefront","posted_menu","visible_reception"],"notes":"Growing area, verify current status.","last_verified":"2025-01-05"}
{"@type":"MassageShop","name":"Wat Pho Massage School Old City","district":"Old City","address":"2 Sanam Chai Road, Old City","coordinates":{"lat":13.7470,"lng":100.4920},"price_traditional":420,"price_oil":650,"hours":"08:00-18:00","franchise":false,"legit":true,"strengths":["uniforms","open_storefront","posted_menu","visible_reception","professional_branding","licensed_display"],"notes":"Official Wat Pho massage school. Very authentic and safe.","last_verified":"2025-01-05"}
{"@type":"MassageShop","name":"Lek Massage Old City","district":"Old City","address":"Tanao Road, Old City","coordinates":{"lat":13.7480,"lng":100.4930},"price_traditional":400,"price_oil":650,"hours":"10:00-22:00","franchise":false,"legit":true,"strengths":["uniforms","open_storefront","posted_menu","visible_reception"],"notes":"Long-established shop near temples.","last_verified":"2025-01-05"}
{"@type":"MassageShop","name":"Nana Traditional Massage","district":"Nana","address":"Sukhumvit Soi 4, Nana","coordinates":{"lat":13.7400,"lng":100.5550},"price_traditional":350,"price_oil":550,"hours":"10:00-22:00","franchise":false,"legit":true,"strengths":["uniforms","open_storefront","posted_menu","visible_reception"],"notes":"Legitimate shop in tourist area. Verify exact location.","last_verified":"2025-01-05"}
{"@type":"MassageShop","name":"Baan Sabai Nana","district":"Nana","address":"Sukhumvit Soi 8, Nana","coordinates":{"lat":13.7410,"lng":100.5560},"price_traditional":350,"price_oil":550,"hours":"10:00-22:00","franchise":false,"legit":true,"strengths":["uniforms","open_storefront","posted_menu","visible_reception"],"notes":"Small chain, reliable service.","last_verified":"2025-01-05"}
{"@type":"MassageShop","name":"Urban Retreat Nana","district":"Nana","address":"Sukhumvit Soi 11, Nana","coordinates":{"lat":13.7420,"lng":100.5570},"price_traditional":400,"price_oil":650,"hours":"10:00-22:00","franchise":false,"legit":true,"strengths":["uniforms","open_storefront","posted_menu","visible_reception","professional_branding"],"notes":"Modern facility, good reviews.","last_verified":"2025-01-05"}
{"@type":"MassageShop","name":"Coran Boutique Spa Phrom Phong","district":"Phrom Phong","address":"10/15 Sukhumvit 39, Phrom Phong","coordinates":{"lat":13.7250,"lng":100.5655},"price_traditional":550,"price_oil":800,"hours":"10:00-22:00","franchise":false,"legit":true,"strengths":["uniforms","open_storefront","posted_menu","visible_reception","professional_branding"],"notes":"Boutique experience, excellent service.","last_verified":"2025-01-05"}

